[
  {
    "id": 1,
    "lat": 62.027575,
    "lng": 129.731505,
    "city": "Якутск",
    "place": "Площадь Ленина",
    "hint": "Центральная площадь столицы"
  },
  {
    "id": 2,
    "lat": 62.016897,
    "lng": 129.705356,
    "city": "Якутск",
    "place": "КФЕН СВФУ",
    "hint": "Корпус университета"
  },
  {
    "id": 3,
    "lat": 62.157122,
    "lng": 117.650234,
    "city": "Сунтар",
    "place": "Центр города",
    "hint": "Районный центр"
  },
  {
    "id": 4,
    "lat": 62.045092,
    "lng": 129.627946,
    "city": "Якутск",
    "place": "Улица Ойунского",
    "hint": "Район ЦСП «Триумф» и озера Сайсары"
  },
  {
    "id": 5,
    "lat": 62.104806,
    "lng": 129.747767,
    "city": "Якутск",
    "place": "Речной порт",
    "hint": "Улица Новопортовская, рядом с площадью Орджоникидзе"
  },
  {
    "id": 6,
    "lat": 61.958341,
    "lng": 129.907139,
    "city": "Старая Табага",
    "place": "Мыс Табага",
    "hint": "Смотровая площадка на реку Лену"
  },
  {
    "id": 7,
    "lat": 62.046929,
    "lng": 129.770076,
    "city": "Якутск",
    "place": "Городской пляж",
    "hint": "203-й микрорайон (Зеленый луг)"
  },
  {
    "id": 8,
    "lat": 61.661400,
    "lng": 129.393579,
    "city": "Покровск",
    "place": "Улица Орджоникидзе",
    "hint": "Центр города Хангаласского улуса"
  },
  {
    "id": 9,
    "lat": 62.6696583,
    "lng": 131.1535413,
    "city": "Чурапча",
    "place": "Улица Ленина",
    "hint": "Главная дорога Чурапчинского улуса"
  },
  {
    "id": 10,
    "lat": 62.6876723,
    "lng": 129.689963,
    "city": "Намцы",
    "place": "Улица Чернышевского",
    "hint": "Центр Намского улуса"
  },
  {
    "id": 11,
    "lat": 63.7555,
    "lng": 121.6247753,
    "city": "Вилюйск",
    "place": "Площадь Ленина",
    "hint": "Центр Вилюйского улуса"
  },
  {
    "id": 12,
    "lat": 63.4505025,
    "lng": 120.3183048,
    "city": "Верхневилюйск",
    "place": "Центр села",
    "hint": "Район переправы или центральной улицы"
  },
  {
    "id": 13,
    "lat": 62.5274933,
    "lng": 113.980857,
    "city": "Мирный",
    "place": "Ленинградский проспект",
    "hint": "Центр города, район администрации"
  },
  {
    "id": 14,
    "lat": 61.293664,
    "lng": 126.84043,
    "city": "Синск",
    "place": "Берег реки Лены",
    "hint": "Впадение реки Синей, туристическое место"
  },
  {
    "id": 15,
    "lat": 61.1206628,
    "lng": 127.3317297,
    "city": "Еланка",
    "place": "Туристическая база",
    "hint": "Ямщицкая станция по пути на Ленские столбы"
  },
  {
    "id": 16,
    "lat": 63.2974383,
    "lng": 118.365121,
    "city": "Нюрба",
    "place": "Улица Советская",
    "hint": "Район парка Нюрбинского улуса"
  },
  {
    "id": 17,
    "lat": 62.0970521,
    "lng": 126.6998198,
    "city": "Бердигестях",
    "place": "Центр села",
    "hint": "Село Горного улуса"
  },
  {
    "id": 18,
    "lat": 58.6105973,
    "lng": 125.3838439,
    "city": "Алдан",
    "place": "Улица 50 лет ВЛКСМ",
    "hint": "Район Обелиска Победы"
  },
  {
    "id": 19,
    "lat": 56.6575964,
    "lng": 124.7110202,
    "city": "Нерюнгри",
    "place": "Проспект Карла Маркса",
    "hint": "Главная площадь города"
  },
  {
    "id": 20,
    "lat": 62.3603184,
    "lng": 130.0067789,
    "city": "Кангалассы",
    "place": "Кангаласский мыс",
    "hint": "Смотровая площадка микрорайона Якутска"
  },
  {
    "id": 21,
    "lat": 61.4831215,
    "lng": 129.154199,
    "city": "Мохсоголлох",
    "place": "Улица Заводская",
    "hint": "Район Цементного завода Хангаласского улуса"
  },
  {
    "id": 22,
    "lat": 64.5644423,
    "lng": 143.2376256,
    "city": "Усть-Нера",
    "place": "Улица Ленина",
    "hint": "Поселок Оймяконского улуса"
  },
  {
    "id": 23,
    "lat": 61.9953298,
    "lng": 132.4414161,
    "city": "Ытык-Кюёль",
    "place": "Улица Кулаковского",
    "hint": "Центр села Таттинского улуса"
  },
  {
    "id": 24,
    "lat": 62.160856,
    "lng": 129.834377,
    "city": "Жатай",
    "place": "Центр города",
    "hint": "Город-спутник Якутска"
  },
  {
    "id": 25,
    "lat": 62.723927,
    "lng": 129.658311,
    "city": "Намцы",
    "place": "Центр района",
    "hint": "Рядом с ЦРБ Намского улуса"
  }
]

